city,interceptLinOnly,betaLinOnly,pvalLinOnly,rSquaredLinOnly,direction,sigLinOnly,betaRLM_freqHCN,pvalRLM_freqHCN,sigRLM,modelOrderBestFit,betaBestFit,pvalBestFit,rSquareBestFit,yIntBestFit,predictedBestFit,continent,Mean_annualAI,Mean_annualPET,Mean_DEM,Mean_GMIS,Mean_NDSI,Mean_summerLST,Mean_summerNDVI,Mean_winterLST,Mean_winterNDVI,betaRLM_annualAI,betaRLM_annualPET,betaRLM_DEM,betaRLM_GMIS,betaRLM_NDSI,betaRLM_summerLST,betaRLM_summerNDVI,betaRLM_winterLST,betaRLM_winterNDVI,pvalRLM_annualAI,pvalRLM_annualPET,pvalRLM_DEM,pvalRLM_GMIS,pvalRLM_NDSI,pvalRLM_summerLST,pvalRLM_summerNDVI,pvalRLM_winterLST,pvalRLM_winterNDVI,latitude_city,longitude_city,city_population,city_area,city_num,city_age
Acton,0.365,0.025,0.818,0.003,positive,No,0.022,0.846,No,linear,0.025,0.818,0.003,0.365,0.39,North America,1.055,840.7,356.2,31.399,0.686,31.274,0.501,-8.071,0.034,-0.002,-3.49,6.557,-73.917,-0.029,-6.211,0.278,-1.816,0.024,0.042,0,0,0,0.375,0,0.013,0,0.238,43.629693,-80.041492,9462,3.97,8,NA
Albuquerque,0.298,-0.148,0.089,0.074,negative,No,-0.185,0.021,Yes,quadratic,-1.387,0.001,0.285,0.494,0.372,North America,0.166,1409.95,1593.175,53.424,-0.294,42.391,0.329,13.754,0.198,0.035,-63.329,188.787,-10.934,-0.028,1.549,-0.035,1.398,0,0,0,0,0.344,0.439,0.201,0.639,0.009,0.992,35.084385,-106.650421,546191,608.4,3,65
Almada,0.961,0.023,0.436,0.015,positive,No,0.026,0.234,No,linear,0.023,0.436,0.015,0.961,0.984,Europe,0.685,1026.955,38.545,68.234,-0.323,34.908,0.287,10.552,0.328,-0.052,30.764,11.545,-2.057,-0.057,1.877,-0.019,-1.525,0.083,0,0,0.333,0.832,0.023,0.008,0.7,0,0.25,38.68029,-9.15849,174030,147.8,5,33
Amsterdam,0.13,0.143,0.146,0.055,positive,No,0.108,0.169,No,linear,0.143,0.146,0.055,0.13,0.273,Europe,1.272,629.075,1.05,17.223,0.408,30.667,0.639,2.001,0.154,-0.017,1.766,-9.462,-55.792,0.311,-3.317,0.266,-1.358,-0.01,0,0,0,0,0.002,0,0,0,0.788,52.373169,4.89066,1114745,315.54,10,374
Anchorage,0.109,-0.033,0.495,0.011,negative,No,-0.011,0.816,No,linear,-0.033,0.495,0.011,0.109,0.076,North America,1.26,325.75,164.364,55.761,0.806,28.191,0.558,-14.318,0.09,0.523,-73.092,629.811,-189.596,0.025,-18.948,0.622,-4.68,0.234,0,0,0,0,0.597,0,0,0,0.004,61.216313,-149.894852,NA,NA,NA,NA
Angus,0.326,0.027,0.881,0.001,positive,No,0.032,0.837,No,linear,0.027,0.881,0.001,0.326,0.353,North America,0.977,863.9,197.85,15.335,0.645,29.795,0.596,-14.22,0.091,0.016,-3.691,30.242,-45.532,0.249,-4.077,-0.045,-0.812,-0.126,0,0,0,0,0.023,0.013,0.701,0.445,0.19,44.325539,-79.88837,12640,4.74,4,NA
Antwerp,0.072,0.353,0.004,0.197,positive,Yes,0.333,0.016,Yes,quadratic,1.238,0.007,0.284,-0.075,0.255,Europe,1.075,726,13,26.091,-0.392,39.24,0.501,3.318,0.538,-0.017,15.264,11.777,-62.601,0.047,2.335,0.095,-0.953,0.321,0,0,0,0,0.161,0.064,0.209,0,0,51.219448,4.402464,483505,365.31,8,161
Armidale,0.562,0.326,0.004,0.201,positive,Yes,0.319,0.005,Yes,quadratic,1.605,0,0.444,0.38,0.618,Oceania,0.619,1273.95,1016.925,14.859,-0.499,31.574,0.579,13.707,0.428,0.035,-41.251,131.445,-49.29,-0.13,-2.903,0.157,-0.158,0.114,0,0,0,0,0,0,0,0.666,0.008,-30.51296,151.66942,23352,19.87,1,NA
Athens,0.36,0.365,0.013,0.216,positive,Yes,0.423,0.004,Yes,linear,0.365,0.013,0.216,0.36,0.724,North America,0.93,1339.179,213.429,25.015,-0.413,35.029,0.601,5.975,0.352,-0.024,8.349,-2.052,-48.68,-0.16,-6.428,0.201,-2.463,0.211,0,0.009,0.813,0,0,0,0.011,0.007,0,33.959768,-83.376398,115441,113.15,4,NA
Atlanta,0.25,0.365,0,0.364,positive,Yes,0.379,0,Yes,linear,0.365,0,0.364,0.25,0.615,North America,1.008,1296.044,310.022,35.354,0.402,38.642,0.53,0.559,0.147,-0.014,33.009,-3.123,-58.372,0.014,-8.786,0.351,-2.072,0.166,0,0,0.446,0,0.841,0,0,0,0,33.757758,-84.388372,426821,3324.2,7,111
Atlantic_City,0.54,-0.21,0.006,0.163,negative,Yes,-0.207,0.013,Yes,linear,-0.21,0.006,0.163,0.54,0.33,North America,1.059,1010.533,7.689,40.592,0.533,29.566,0.503,-8.799,0.095,-0.097,121.361,8.443,-98.593,-0.273,-11.777,0.71,-2.863,0.223,0,0,0,0,0.001,0,0,0,0,39.356273,-74.436074,39558,364.64,8,NA
Baltimore,0.203,0.032,0.717,0.004,positive,No,0.032,0.711,No,linear,0.032,0.717,0.004,0.203,0.235,North America,0.995,1107.692,140.897,36.016,0.737,33.976,0.533,-4.568,0.012,0.022,-69.59,190.935,-84.441,-0.057,-12.334,0.575,-2.428,0.065,0.133,0,0,0,0.013,0,0,0,0.001,39.29044,-76.612328,620862,1230.45,5,173
Barrie,0.269,0.085,0.333,0.041,positive,No,0.044,0.601,No,linear,0.085,0.333,0.041,0.269,0.354,North America,1.001,857.28,241.32,21.315,0.566,27.402,0.632,-14.132,0.111,0.006,-3.546,19.524,-61.382,-0.011,-6.058,0.405,-3.255,0.217,0.154,0.003,0.001,0,0.911,0.003,0,0,0.003,44.389339,-79.685516,145614,69.6,5,NA
Baton_Rouge,0.599,0.463,0,0.353,positive,Yes,0.35,0,Yes,quadratic,1.644,0,0.48,0.377,0.863,North America,1.075,1420.711,10.2,16.453,-0.418,31.983,0.586,18.54,0.462,0.012,0.083,-9.901,-19.976,-0.028,-2.727,0.005,-1.698,-0.012,0,0.933,0,0.008,0.536,0.035,0.937,0.005,0.877,30.447963,-91.18898,229422,604.59,2,61
Beijing,0.827,-0.376,0.174,0.082,negative,No,-0.376,0.174,No,linear,-0.376,0.174,0.082,0.827,0.451,Asia,0.557,1093.333,46.375,32.817,0.606,38.59,0.61,-1.762,0.043,0.004,18.254,-11.628,-135.124,0.153,-1.295,-0.113,-0.775,-0.078,0.546,0,0.021,0,0.008,0.801,0.557,0.204,0.027,39.904202,116.407394,16704306,6142.22,5,763
Berlin,0.08,0.186,0.01,0.188,positive,Yes,0.191,0.017,Yes,linear,0.186,0.01,0.188,0.08,0.266,Europe,0.744,749.118,45.121,33.207,-0.289,32.177,0.558,2.846,0.391,-0.039,6.952,-0.399,-23.783,-0.289,1.741,-0.026,0.769,0.282,0,0,0.908,0.068,0,0.275,0.776,0.03,0.002,52.513592,13.392534,3644826,1139.9,6,227
Bern,0.57,-0.065,0.517,0.011,negative,No,-0.062,0.568,No,linear,-0.065,0.517,0.011,0.57,0.504,Europe,1.212,774.125,564.55,31.416,0.1,36.13,0.521,4.676,0.117,0.063,-13.985,72.024,-75.778,0.748,-6.084,0.257,-5.754,-0.051,0,0,0,0,0,0,0,0,0.175,46.947975,7.447447,133883,56.34,6,NA
Bogota,0.251,0.26,0.03,0.118,positive,Yes,0.208,0.079,No,linear,0.26,0.03,0.118,0.251,0.511,South America,0.677,1234.875,2559.875,35.298,-0.376,29.271,0.42,30.119,0.477,-0.109,-11.71,41.182,-96.648,-0.199,-7.837,0.408,-5.529,0.54,0,0,0,0,0,0,0,0,0,4.627184,-74.106993,7387400,431.6,3,116
Boston,0.137,0.12,0.052,0.087,positive,No,0.134,0.04,Yes,linear,0.12,0.052,0.087,0.137,0.257,North America,1.206,963.773,40.455,32.094,0.039,32.64,0.555,-3.391,0.227,0.04,21.653,25.993,-14.12,0.235,-5.155,0.164,-0.759,0.007,0,0,0.014,0.157,0.013,0.001,0.063,0.085,0.883,42.356666,-71.05574,617786,789.01,6,167
Bradford,0.272,-0.018,0.845,0.002,negative,No,-0.065,0.477,No,linear,-0.018,0.845,0.002,0.272,0.254,North America,0.953,850.1,255.1,40.293,0.653,32.966,0.412,-11.951,0.03,0.008,3.088,11.571,-81.516,0.207,-1.36,0.194,-1.214,0.008,0.037,0.007,0.048,0,0,0.16,0.044,0,0.498,44.114297,-79.564777,29862,12.33,4,NA
Brantford,0.276,0.1,0.321,0.039,positive,No,0.091,0.365,No,linear,0.1,0.321,0.039,0.276,0.376,North America,1.036,873.296,231.556,43.949,0.778,32.328,0.462,-19.39,-0.013,-0.013,1.937,6.219,-40.507,-0.009,-4.731,0.156,-1.714,-0.011,0,0,0.343,0,0.684,0,0.049,0,0.408,43.13941,-80.26365,98179,49.09,8,NA
Brighton,0.298,0.332,0.001,0.239,positive,Yes,0.326,0.002,Yes,linear,0.332,0.001,0.239,0.298,0.63,Europe,0.995,723.475,24.95,0.347,-0.357,35.747,0.535,2.674,0.619,-0.009,-1.438,-7.121,0,-0.078,4.537,0.146,-0.373,0.042,0,0,0.182,0.561,0.001,0,0.026,0.177,0.226,50.822041,-0.137406,244329,94.67,5,124
Brussels,0.291,0.146,0.248,0.047,positive,No,0.117,0.185,No,linear,0.146,0.248,0.047,0.291,0.436,Europe,1.065,764.933,90.1,36.817,-0.261,31.632,0.558,-0.104,0.404,0.035,-3.266,44.697,-86.407,0.281,-7.967,0.448,-2.076,0.247,0,0.019,0,0,0.03,0,0,0,0.002,50.845539,4.35571,157673,281.52,8,191
Buenos_Aires,0.737,0.024,0.725,0.003,positive,No,0.021,0.757,No,linear,0.024,0.725,0.003,0.737,0.761,South America,0.798,1291.133,18.489,28.1,-0.373,34.506,0.471,15.036,0.411,-0.121,171.896,11.944,-37.273,-0.249,3.514,0.16,0.349,0.209,0,0,0,0,0,0,0.004,0.22,0,-34.603683,-58.381557,13588171,2356.31,2,156
Burlington,0.682,-0.205,0.016,0.114,negative,Yes,-0.251,0.002,Yes,linear,-0.205,0.016,0.114,0.682,0.476,North America,1.024,885.64,112.06,23.693,0.58,32.836,0.597,-11.987,0.059,0.07,1.794,4.909,-56.292,0.074,-8.707,0.302,-3.264,0.033,0,0.451,0.641,0,0.029,0,0,0,0.03,44.476299,-73.213547,42899,101.13,2,NA
Calgary,0.083,0.201,0.03,0.118,positive,Yes,0.193,0.048,Yes,linear,0.201,0.03,0.118,0.083,0.283,North America,0.563,771.1,1066.525,50.389,0.692,31.906,0.42,1.96,0.045,0.003,20.173,34.726,-42.771,0.491,0.343,0.102,-2.572,-0.184,0.429,0,0.003,0.003,0,0.812,0.146,0,0,51.047329,-114.072387,1237656,625.23,3,67
Cambridge,0.129,0.444,0,0.353,positive,Yes,0.427,0,Yes,linear,0.444,0,0.353,0.129,0.573,Europe,0.811,685.025,25.65,23.536,-0.419,33.677,0.571,2.412,0.572,0.022,-5.227,25.987,-43.382,-0.043,-5.391,0.127,-1.357,0.173,0,0,0,0,0.08,0,0.017,0,0.003,52.205338,0.121817,145818,43.43,5,NA
Canberra,0.742,-0.013,0.888,0.001,negative,No,-0.014,0.866,No,linear,-0.013,0.888,0.001,0.742,0.729,Oceania,0.515,1241.75,585.05,31.206,-0.434,40.003,0.398,10.505,0.393,0.007,-6.16,7.077,1.863,-0.007,2.796,-0.184,1.373,-0.127,0.005,0,0.121,0.892,0.86,0.003,0,0,0.013,-35.308275,149.124322,432141,326.91,3,49
Cape_Town,0.779,0.103,0.558,0.019,positive,No,0.022,0.861,No,linear,0.103,0.558,0.019,0.779,0.882,Africa,0.746,1202.05,72.615,23.39,-0.423,31.88,0.458,19.843,0.545,-0.251,119.19,144.889,-54.971,-0.099,3.514,-0.026,-2.226,0.16,0.12,0,0.001,0.013,0.171,0.173,0.85,0,0.134,-33.92487,18.424055,3430992,684.07,3,119
Charlotte,0.335,0.006,0.934,0,positive,No,-0.002,0.987,No,quadratic,0.702,0.012,0.166,0.258,0.201,North America,0.906,1278.525,237.205,28.054,0.531,35.491,0.585,-3.137,0.108,0.024,0.491,36.684,-47.836,0.116,-5.553,0.314,-4.619,0.026,0,0.725,0,0,0.163,0.001,0,0,0.553,35.226888,-80.84369,753692,1448.68,4,68
Charlottetown,0.346,0.027,0.691,0.004,positive,No,0.032,0.667,No,linear,0.027,0.691,0.004,0.346,0.373,North America,1.593,708,32.289,NaN,0.788,29.225,0.596,-12.302,-0.017,0.035,-14.877,44.662,NA,0.02,-7.054,0.427,-3.822,0.018,0,0,0,NA,0.251,0,0,0,0.019,46.23542,-63.12652,44739,38.22,1,NA
Chicago,0.156,0.156,0.033,0.102,positive,Yes,0.167,0.024,Yes,linear,0.156,0.033,0.102,0.156,0.311,North America,0.961,935.533,202.556,47.644,0.42,35.127,0.462,-12.022,0.102,0.001,-49.626,45.329,-86.265,0.136,-9.461,0.464,-2.961,-0.03,0.608,0,0,0,0.191,0,0,0,0.34,41.878113,-87.629799,2695624,5366.15,5,158
Christchurch,0.468,0.415,0,0.346,positive,Yes,0.429,0,Yes,quadratic,1.061,0.002,0.422,0.389,0.761,Oceania,0.683,907.051,11.892,31.46,-0.367,32.511,0.552,6.809,0.5,0.086,-13.031,-4.033,-72.334,-0.244,-7.518,0.392,0.234,0.382,0,0,0.18,0,0,0,0,0.565,0,-43.532055,172.63623,374100,181.67,1,74
Cincinnati,0.191,0.036,0.624,0.006,positive,No,0.03,0.695,No,linear,0.036,0.624,0.006,0.191,0.226,North America,0.971,1093.9,229.3,32.888,0.345,34.888,0.566,-6.022,0.089,0.054,-53.908,103.857,-82.933,0.061,-9.885,0.473,-2.537,0.098,0,0,0,0,0.159,0,0,0,0,39.103119,-84.512016,296893,1793.38,3,162
Cleveland,0.225,0.094,0.094,0.072,positive,No,0.064,0.261,No,linear,0.094,0.094,0.072,0.225,0.318,North America,1.048,951.95,302.2,30.92,0.575,27.991,0.552,-9.059,0.089,0.188,-34.92,189.325,-101.116,0.222,-17.886,0.625,-3.385,0.022,0,0,0,0,0.001,0,0,0,0.499,41.499321,-81.694359,396629,2179.6,4,142
Cobourg,0.211,-0.012,0.909,0.001,negative,No,0.052,0.56,No,linear,-0.012,0.909,0.001,0.211,0.199,North America,0.97,820.074,90.889,14.728,0.548,33.348,0.582,-9.406,0.128,-0.005,7.903,13.146,-32.177,0.048,-2.492,0.091,-0.831,-0.042,0,0,0,0,0.416,0.043,0.193,0.006,0.359,43.9599,-78.16545,19031,15.99,3,NA
Cologne,0.407,-0.006,0.964,0,negative,No,0.023,0.862,No,linear,-0.006,0.964,0,0.407,0.401,Europe,1.025,766.857,72.179,NaN,-0.469,34.365,0.611,0.433,0.449,0.047,-20.045,25.142,NA,0.026,-6.315,0.275,-0.105,0.078,0,0,0,NA,0.615,0,0.007,0.758,0.195,50.940529,6.95991,1085664,434.41,7,162
Curitiba,0.791,-0.056,0.366,0.025,negative,No,-0.041,0.519,No,linear,-0.056,0.366,0.025,0.791,0.736,South America,1.087,1255.943,920.114,21.642,-0.462,33.714,0.53,22.674,0.468,0.095,-49.896,40.536,-46.299,-0.175,-7.925,0.401,-2.952,0.327,0,0,0,0,0,0,0,0,0,-25.433386,-49.271747,1893997,707.95,4,112
Denver,0.22,-0.047,0.694,0.004,negative,No,-0.044,0.703,No,linear,-0.047,0.694,0.004,0.22,0.173,North America,0.365,1163.767,1721.093,40.662,-0.334,39.339,0.427,5.542,0.263,0.065,-34.669,452.337,-51.017,-0.149,-7.968,0.005,-2.953,0.063,0,0,0,0,0,0,0.949,0,0.178,39.745485,-104.990108,599815,1704.65,4,118
Detroit,0.297,0.053,0.52,0.011,positive,No,0.063,0.424,No,linear,0.053,0.52,0.011,0.297,0.349,North America,0.872,942.85,186.325,38.303,0.576,31.792,0.432,-5.143,0.025,-0.058,54.634,10.527,-95.651,0.559,-5.211,0.311,-4.978,-0.111,0,0,0,0,0,0,0,0,0,42.332939,-83.047836,713885,2776.49,5,136
Edmonton,0.145,0.058,0.454,0.013,positive,No,0.046,0.49,No,linear,0.058,0.454,0.013,0.145,0.202,North America,0.655,700.364,674.364,NaN,0.685,33.634,0.502,-19.406,-0.005,0.014,-7.187,32.013,NA,0.08,-7.224,0.215,-6.753,-0.06,0,0,0,NA,0,0,0.001,0,0,53.544388,-113.490929,1062643,605.8,4,70
Elmira,0.418,-0.08,0.561,0.019,negative,No,-0.058,0.64,No,linear,-0.08,0.561,0.019,0.418,0.338,North America,1.116,842.3,361.6,25.491,0.581,34.152,0.555,-10.699,0.04,-0.001,0.756,8.269,-61.85,0.221,-8.687,0.254,-1.408,-0.082,0.356,0.163,0.037,0,0.001,0,0.009,0.007,0.003,43.599976,-80.55778,10161,6.12,7,NA
Everett,0.221,0.137,0.125,0.126,positive,No,0.133,0.101,No,linear,0.137,0.125,0.126,0.221,0.358,North America,0.994,854.9,255.5,6.168,0.652,27.954,0.674,-20.321,0.015,0.02,-8.609,43.618,-4.264,-0.015,-2.998,-0.097,-2.927,-0.035,0,0,0,0.134,0.306,0.019,0.143,0,0.03,44.19047,-79.93722,1670,1.37,5,NA
Fairbanks,0.084,0.025,0.606,0.007,positive,No,0.016,0.731,No,linear,0.025,0.606,0.007,0.084,0.109,North America,0.656,385.1,168.55,40.3,0.773,30.373,0.598,-17.803,0.037,0.006,-1.736,105.801,-68.137,-0.106,-10.28,0.413,2.381,0.104,0.094,0.102,0,0,0.006,0,0,0,0,64.837776,-147.716385,NA,NA,NA,NA
Fergus,0.347,0.288,0.006,0.355,positive,Yes,0.288,0.006,Yes,linear,0.288,0.006,0.355,0.347,0.636,North America,1.145,827.1,423.2,20.2,0.59,33.095,0.609,-11.281,0.05,0.037,-9.849,30.65,-43.215,0.131,-6.931,0.224,-0.457,-0.015,0,0,0,0,0.002,0,0.003,0.355,0.532,43.70367,-80.37953,20767,8.81,7,NA
Fort_Collins,0.117,0.094,0.608,0.013,positive,No,-0.083,0.425,No,linear,0.094,0.608,0.013,0.117,0.212,North America,0.323,1141.565,1523.87,46.196,0.66,36.001,0.406,-6.538,0.056,0,-1.958,13.927,-77.086,0.264,-4.968,0.317,-2.126,-0.008,0.83,0.322,0.043,0,0.005,0.002,0.004,0.02,0.864,40.587751,-105.076,144855,201.39,4,NA
Frankfurt,0.258,0.25,0.054,0.092,positive,No,0.314,0.015,Yes,linear,0.25,0.054,0.092,0.258,0.508,Europe,0.821,801.707,134.341,18.909,-0.345,28.347,0.626,3.852,0.441,0.032,-17.618,35.383,-52.525,-0.079,-8.746,0.305,-3.146,0.227,0,0,0.003,0,0.019,0,0,0,0,50.110644,8.682092,753056,624.61,8,155
Fredericton,0.158,0.021,0.693,0.004,positive,No,-0.001,0.99,No,quadratic,0.382,0.043,0.106,0.114,0.087,North America,1.334,814.05,13.175,26.68,0.666,33.019,0.608,-7.975,0.072,0.037,-7.835,3.493,-36.197,-0.07,-6.196,0.224,0.112,0.091,0,0,0.224,0.001,0.156,0.002,0.002,0.727,0.008,45.962041,-66.643934,59405,57.97,1,NA
Freehold,0.23,-0.144,0.005,0.166,negative,Yes,-0.132,0.009,Yes,linear,-0.144,0.005,0.166,0.23,0.086,North America,1.128,1036.404,56.404,14.981,0.583,29.767,0.685,-11.558,0.108,-0.036,14.37,0.77,-28.074,-0.116,-8.432,0.249,-1.445,0.144,0,0,0.745,0,0.068,0,0,0,0,40.26011,-74.273757,12052,107.92,7,NA
Georgetown,0.279,0.136,0.339,0.051,positive,No,0.088,0.523,No,linear,0.136,0.339,0.051,0.279,0.415,North America,0.999,853.15,275.3,14.106,0.62,29.412,0.619,-7.521,0.067,0.046,-8.567,71.476,-52.687,0.035,-6.424,0.271,-2.393,0.006,0,0,0,0,0.639,0,0.001,0,0.888,43.651146,-79.898875,42123,16.85,8,NA
Ghent,0.094,0.185,0.031,0.117,positive,Yes,0.173,0.065,No,linear,0.185,0.031,0.117,0.094,0.279,Europe,1.087,690.45,9.3,27.267,-0.39,37.111,0.497,0.7,0.501,-0.029,10.798,-4.586,-74.279,0.034,1.628,0.187,-1.074,0.313,0,0,0.008,0,0.248,0.058,0.003,0,0,51.053829,3.725012,243366,138.97,9,147
Glasgow,0.432,-0.21,0.076,0.08,negative,No,-0.245,0.064,No,linear,-0.21,0.076,0.08,0.432,0.223,Europe,2.268,578.55,69.6,25.868,-0.383,26.6,0.651,6.353,0.473,0.446,-10.861,30.703,-79.473,-0.228,-6.655,0.384,-0.679,0.306,0,0,0.1,0,0,0,0,0.006,0,55.865681,-4.25714,999300,448.82,4,201
Guelph,0.163,0.315,0.005,0.363,positive,Yes,0.286,0.012,Yes,linear,0.315,0.005,0.363,0.163,0.478,North America,1.069,850.65,331.3,26.687,0.678,32.203,0.474,-8.048,0.027,0.001,3.846,-2.907,-65.152,0.121,-2.976,0.044,-2.819,-0.058,0.221,0,0.56,0,0,0.006,0.573,0,0,43.54481,-80.24811,132397,63.75,9,NA
Halifax,0.087,0.04,0.349,0.023,positive,No,0.042,0.368,No,linear,0.04,0.349,0.023,0.087,0.127,North America,1.924,739.975,69.225,28.133,0.523,29.394,0.577,-0.358,0.089,-0.109,26.052,31.896,-21.938,-0.134,-6.371,0.2,-3.103,0.172,0,0,0.038,0.008,0.083,0,0,0,0,44.648766,-63.575237,316701,146.8,2,72
Halle,0.171,0.23,0.01,0.163,positive,Yes,0.237,0.005,Yes,quadratic,0.938,0.003,0.283,0.075,0.248,Europe,0.663,744.8,119.2,28.217,-0.393,29.506,0.614,2.244,0.491,0.036,-10.81,42.251,-83.891,-0.013,-11.492,0.502,-1.928,0.583,0,0,0,0,0.626,0,0,0,0,51.482504,11.970545,239257,83.29,5,125
Helsinki,0.089,-0.008,0.92,0,negative,No,-0.024,0.455,No,linear,-0.008,0.92,0,0.089,0.081,Europe,1.246,518.85,14.35,25.173,0.514,29.874,0.59,-22.5,0.073,-0.049,15.788,3.661,-60.383,-0.044,-4.241,0.268,-0.765,0.08,0,0,0.214,0,0.052,0.001,0,0.008,0,60.169857,24.938379,648042,388.83,4,108
Hempstead,0.083,0.218,0.012,0.159,positive,Yes,0.193,0.024,Yes,linear,0.218,0.012,0.159,0.083,0.301,North America,1.197,923.282,45.385,37.082,0.574,41.036,0.549,-6.735,0.139,0.057,5.468,69.16,-99.134,-0.389,-17.79,0.755,-4.063,0.326,0,0,0,0,0,0,0,0,0,40.705561,-73.625962,53891,370.02,6,NA
Hiroshima,0.301,-0.01,0.931,0,negative,No,-0.007,0.951,No,linear,-0.01,0.931,0,0.301,0.291,Asia,1.54,1030.733,94.955,NaN,-0.306,36.634,0.423,16.007,0.246,0.238,-96.186,268.255,NA,-0.313,-7.382,0.516,-1.31,0.223,0,0,0,NA,0,0,0,0.192,0,34.385204,132.455292,1194034,476.36,3,109
Houston,0.826,0.197,0.017,0.131,positive,Yes,0.118,0.03,Yes,quadratic,0.843,0.002,0.261,0.734,0.864,North America,0.81,1391.884,26.953,35.11,-0.393,38.751,0.395,9.081,0.373,-0.141,182.03,16.742,-62.359,-0.25,1.842,0.021,-0.782,0.145,0,0,0,0,0,0.034,0.744,0.156,0.027,29.758938,-95.367697,2093615,3597.93,3,99
Indianapolis,0.098,0.043,0.343,0.019,positive,No,0.036,0.389,No,linear,0.043,0.343,0.019,0.098,0.141,North America,0.964,1061.16,251.18,56.506,0.687,39.292,0.371,-1.646,-0.006,0.027,-5.453,35.093,-64.233,0.188,-10.102,0.345,-4.236,-0.059,0,0,0,0,0.001,0,0,0,0,39.768402,-86.158066,820436,1294.87,5,123
Jacksonville,0.735,0.278,0.002,0.26,positive,Yes,0.203,0.009,Yes,quadratic,1.372,0,0.456,0.59,0.869,North America,0.912,1398.771,8.765,21.591,-0.468,37.936,0.593,20.335,0.525,0.046,-62.213,5.309,-25.626,-0.128,-7.782,0.167,-2.094,0.143,0,0,0.015,0.02,0.009,0,0.029,0.003,0.034,30.32597,-81.656761,821764,1219.62,3,85
Kalamazoo,0.247,0.005,0.928,0,positive,No,0.015,0.779,No,linear,0.005,0.928,0,0.247,0.252,North America,0.935,979.825,247.5,17.456,NaN,NaN,NaN,NaN,NaN,0.019,-7.809,37.716,-35.189,NA,NA,NA,NA,NA,0,0,0,0,NA,NA,NA,NA,NA,42.28978,-85.584679,74262,180.7,4,NA
Kingston,0.209,0.076,0.572,0.013,positive,No,0.083,0.557,No,linear,0.076,0.572,0.013,0.209,0.285,North America,1.153,805.259,95.115,50.271,0.342,39.655,0.459,-7.857,0.083,-0.024,4.563,-12.089,-71.456,0.397,-10.677,0.427,-4.416,-0.038,0,0,0.011,0,0.012,0,0,0,0.189,44.23048,-76.48125,117660,64.92,2,NA
Kunming,0.595,-0.109,0.449,0.012,negative,No,-0.111,0.448,No,linear,-0.109,0.449,0.012,0.595,0.486,Asia,0.874,1156.22,2050.58,40.573,-0.399,35.824,0.426,17.179,0.399,0.149,-120.498,617.449,-94.272,-0.343,-2.675,0.186,-2.487,0.248,0,0,0,0,0,0.114,0.002,0.017,0,25.037281,102.716949,3385363,880.35,6,105
Kyoto,0.386,-0.197,0.038,0.098,negative,Yes,-0.154,0.127,No,linear,-0.197,0.038,0.098,0.386,0.188,Asia,1.587,1069.909,73.773,36.447,-0.281,40.004,0.486,14.266,0.241,0.052,-56.649,107.375,-91.033,-0.258,-15.058,0.427,1.29,0.192,0,0,0,0,0,0,0,0.011,0,35.003655,135.759676,1475183,3406.11,8,1170
La_Verne,0.137,0.1,0.386,0.02,positive,No,0.087,0.267,No,linear,0.1,0.386,0.02,0.137,0.237,North America,0.341,1503.575,392.641,51.434,-0.332,33.941,0.41,15.142,0.466,0.057,-5.611,151.407,-16.552,-0.062,-0.778,0.004,-0.83,0.058,0,0,0,0.022,0.021,0.129,0.915,0.038,0.239,34.100843,-117.767836,31063,82.28,6,NA
Lake_Charles,0.791,0.083,0.629,0.006,positive,No,0.119,0.297,No,linear,0.083,0.629,0.006,0.791,0.874,North America,1.041,1363.875,7.6,27.594,-0.417,32.026,0.519,13.833,0.435,0.055,-62.994,-6.99,-58.708,-0.143,-5.821,0.29,-0.626,0.203,0,0,0.001,0,0.005,0,0.008,0.435,0.027,30.226595,-93.217376,71993,236.1,1,NA
Landshut,0.236,-0.051,0.584,0.006,negative,No,-0.021,0.818,No,linear,-0.051,0.584,0.006,0.236,0.184,Europe,1.032,780.1,409.46,26.383,-0.364,34.077,0.582,2.39,0.469,0.036,-20.931,52.536,-80.755,0.07,-10.863,0.379,-1.836,0.47,0,0,0,0,0.093,0,0,0,0,48.536217,12.151655,63544,30.11,7,NA
Lansing,0.187,-0.008,0.903,0,negative,No,0.015,0.824,No,linear,-0.008,0.903,0,0.187,0.179,North America,0.832,952.525,265.625,30.068,0.723,35.996,0.567,-16.636,0.013,0.008,2.724,10.904,-68.548,0.026,-7.813,0.375,-4.291,-0.03,0,0,0,0,0.213,0,0,0,0.029,42.733771,-84.555381,114253,279.43,3,NA
Lanzhou,0.638,-0.123,0.168,0.052,negative,No,-0.127,0.164,No,quadratic,-1.422,0.001,0.289,0.835,0.567,Asia,0.332,1049.079,1726.941,36.681,0.032,35.235,0.256,-2.056,0.07,0.054,-97.162,262.934,-71.412,0.495,-1.301,0.067,-4.675,0.024,0,0,0,0,0,0.596,0.553,0,0.644,36.057812,103.825896,2438595,245.24,4,83
Latacunga,0.242,0.224,0.12,0.063,positive,No,0.232,0.062,No,linear,0.224,0.12,0.063,0.242,0.466,South America,0.52,1258.825,2963.9,18.928,-0.406,36.579,0.443,29.916,0.439,0.342,-141.116,424.208,-53.424,-0.137,-3.413,0.228,-0.265,0.259,0,0,0,0,0,0.019,0,0.801,0,-0.933613,-78.614884,63842,15.84,3,NA
Leiden,0.027,0.204,0.027,0.129,positive,Yes,0.155,0.074,No,linear,0.204,0.027,0.129,0.027,0.231,Europe,1.269,621.053,-0.421,31.813,0.568,33.746,0.463,2.018,0.083,-0.009,5.332,-7.152,-94.471,0.583,-2.743,0.315,-2.031,-0.124,0,0,0,0,0,0.001,0,0,0,52.161091,4.49015,270225,72.12,8,214
Leuven,0.248,0.115,0.343,0.03,positive,No,0.081,0.513,No,linear,0.115,0.343,0.03,0.248,0.363,Europe,1.057,751.75,39.969,41.149,-0.366,44.66,0.421,6.211,0.378,0.053,-12.512,44.336,-49.752,-0.092,-3.252,0.07,-1.057,0.216,0,0,0,0,0,0.008,0.201,0,0,50.879829,4.70054,95463,42.91,8,NA
Linkoping,-0.04,0.272,0,0.313,positive,Yes,0.194,0,Yes,quadratic,-0.355,0.105,0.439,0.055,0.36,Europe,0.908,611.682,68.886,18.68,NaN,34.003,0.601,NaN,NaN,0.012,-3.278,15.266,-46.946,NA,-3.097,0.168,NA,NA,0,0,0,0,NA,0.004,0.004,NA,NA,58.411801,15.621772,116368,41.36,2,NA
Lisbon,0.937,-0.319,0.052,0.081,negative,No,-0.103,0.233,No,linear,-0.319,0.052,0.081,0.937,0.619,Europe,0.786,975.468,133.022,48.896,-0.375,33.602,0.367,12.485,0.439,0.245,-133.639,233.453,-69.417,-0.165,-0.866,0.162,2.78,0.35,0,0,0,0,0,0.375,0.015,0,0,38.711136,-9.127747,552700,409.62,6,386
Little_Rock,0.235,0.398,0.008,0.194,positive,Yes,0.42,0.002,Yes,linear,0.398,0.008,0.194,0.235,0.633,North America,0.962,1313.229,96.314,32.502,-0.431,41.001,0.524,15.328,0.313,-0.005,2.658,-34.089,-45.954,-0.172,-11.66,0.318,-3.276,0.194,0.086,0.011,0,0,0,0,0,0,0,34.744641,-92.27467,193490,435.75,3,43
Loja,0.099,0.158,0.036,0.11,positive,Yes,0.156,0.024,Yes,quadratic,-0.508,0.063,0.248,0.194,0.37,South America,0.801,1332.775,2145.5,51.761,-0.443,30.921,0.401,28.137,0.456,0.079,-28.136,129.29,-120.331,-0.143,-3.671,0.424,-6.082,0.463,0,0,0,0,0,0,0,0,0,-3.997781,-79.202452,170280,25.58,1,20
London,0.298,-0.02,0.796,0.002,negative,No,0.001,0.984,No,quadratic,0.639,0.034,0.131,0.191,0.162,North America,1.081,876.85,268.95,39.937,0.454,40.919,0.458,-7.679,0.059,0.006,-2.817,29.525,-104.808,0.106,-13.533,0.438,-1.073,0.077,0,0,0,0,0.055,0,0,0.001,0,42.98427,-81.24753,383437,196.42,2,62
Los_Angeles,0.408,0.062,0.547,0.009,positive,No,0.111,0.263,No,linear,0.062,0.547,0.009,0.408,0.471,North America,0.305,1322.881,207.476,57.605,-0.298,39.698,0.316,26.861,0.351,0.016,102.458,229.048,-41.724,-0.181,2.065,0.113,0.225,0.155,0.033,0,0,0,0,0.063,0.015,0.716,0.003,34.050249,-118.254907,3792820,5378.66,6,118
Louisville,0.192,-0.036,0.608,0.006,negative,No,-0.023,0.752,No,linear,-0.036,0.608,0.006,0.192,0.155,North America,0.978,1180.239,174.795,34.951,0.404,35.444,0.566,0.657,0.181,0.05,22.921,106.223,-78.253,0.319,-11.453,0.42,-0.988,0.016,0,0,0,0,0.012,0,0,0.063,0.841,38.256606,-85.756595,595386,849.9,3,142
Madison,0.104,0.057,0.148,0.043,positive,No,0.069,0.094,No,linear,0.057,0.148,0.043,0.104,0.161,North America,0.843,957.56,277.68,32.198,0.744,34.995,0.523,-12.201,0.007,0.017,-5.998,42.147,-73.784,0.081,-10.656,0.429,-5.41,-0.025,0,0,0,0,0.004,0,0,0,0.052,43.074761,-89.383761,233163,247.36,4,55
Manchester,0.265,0.2,0.123,0.061,positive,No,0.19,0.15,No,linear,0.2,0.123,0.061,0.265,0.466,Europe,1.355,644.95,62.308,15.86,-0.423,35.598,0.6,7.844,0.574,-0.062,-29.486,55.552,-36.861,-0.104,-5.255,0.254,-0.775,0.248,0,0,0,0,0,0,0,0,0,53.480759,-2.242631,510746,647.75,11,202
Medellin,0.091,-0.102,0.031,0.117,negative,Yes,-0,0.269,No,linear,-0.102,0.031,0.117,0.091,-0.012,South America,1.165,1579.875,1604.7,47.187,-0.365,31.362,0.44,34.352,0.418,0.532,-255.682,365.085,-61.755,-0.141,-9.757,0.284,-11.092,0.262,0,0,0,0,0.001,0,0,0,0,6.249957,-75.566258,2382399,176.89,2,97
Melbourne,0.49,0.286,0.072,0.107,positive,No,0.26,0.099,No,linear,0.286,0.072,0.107,0.49,0.776,Oceania,0.543,1092.194,33.774,11.959,-0.414,29.129,0.466,13.564,0.559,-0.141,-39.404,-1.492,-13.823,-0.116,7.16,-0.046,1.722,0.048,0,0,0.862,0.048,0,0,0.431,0,0.491,-37.814218,144.963161,4196201,1903.15,4,155
Memphis,0.223,0.42,0,0.383,positive,Yes,0.436,0,Yes,linear,0.42,0,0.383,0.223,0.643,North America,1.029,1250.46,83.143,34.708,-0.43,39.266,0.518,5.514,0.287,0.007,7.433,6.393,-84.921,-0.292,-13.467,0.568,-2.043,0.3,0.001,0,0.154,0,0,0,0,0,0,35.149022,-90.051629,651885,898.09,3,104
Mexico_City,0.802,-0.056,0.777,0.003,negative,No,-0.103,0.559,No,linear,-0.056,0.777,0.003,0.802,0.745,North America,0.632,1524.697,2529.394,39.041,-0.378,36.421,0.445,22.181,0.394,0.773,-484.261,1266.242,-45.682,-0.281,-7.062,0.171,0.194,0.085,0,0,0,0.002,0,0.013,0.08,0.919,0.446,19.432608,-99.133209,8421000,1579.06,4,205
Minneapolis,0.031,0.044,0.297,0.026,positive,No,0.018,0.512,No,linear,0.044,0.297,0.026,0.031,0.075,North America,0.825,914.75,288.523,30.305,0.675,40.079,0.601,-19.057,0.066,0.042,9.29,80.734,-58.443,-0.012,-15.528,0.349,-1.574,-0.003,0,0,0,0,0.828,0,0,0,0.91,44.9773,-93.265469,382603,1442.55,4,131
Moncton,0.121,0.011,0.81,0.002,positive,No,0.008,0.856,No,quadratic,0.342,0.032,0.121,0.077,0.067,North America,1.393,817.775,18.75,40.632,0.599,33.198,0.558,-11.15,0.059,-0.001,1.338,16.763,-72.797,0.133,-9.681,0.347,-2.091,0.058,0.772,0,0,0,0.013,0,0,0,0.002,46.088879,-64.775818,108620,85.71,1,NA
Montreal,0.475,-0.058,0.57,0.007,negative,No,-0.079,0.482,No,linear,-0.058,0.57,0.007,0.475,0.417,North America,1.149,832.551,38.327,50.786,0.761,34.413,0.454,-14.987,-0.001,-0.037,-11.9,4.85,-87.339,0.121,-12.521,0.498,-7.56,-0.003,0,0,0.483,0,0.002,0,0,0,0.857,45.50169,-73.567253,1782844,1048.97,5,152
Morelia,0.35,0.323,0.057,0.092,positive,No,0.323,0.057,No,linear,0.323,0.057,0.092,0.35,0.674,North America,0.512,1592.225,1916.41,42.86,-0.374,39.363,0.352,23.523,0.331,0.025,21.366,5.39,-45.631,-0.124,-2.998,0.176,-2.586,0.188,0,0,0.504,0.001,0,0.047,0.003,0.009,0.002,19.702692,-101.194984,901782,130.19,1,52
Muenster,0.036,0.501,0,0.276,positive,Yes,0.467,0.001,Yes,linear,0.501,0,0.276,0.036,0.537,Europe,1.125,707.2,56.925,13.586,-0.459,33.645,0.644,7.779,0.437,-0.024,2.588,-15.391,-42.262,-0.075,-2.955,0.098,-3.25,0.225,0,0,0,0,0,0.014,0.104,0,0,51.962126,7.624724,314319,65.07,10,86
Munich,0.243,0.086,0.335,0.019,positive,No,0.092,0.274,No,linear,0.086,0.335,0.019,0.243,0.328,Europe,1.191,771.196,516.098,44.109,-0.514,36.487,0.549,2.528,0.446,-0.031,-5.889,-20.839,-52.88,0.063,-7.308,0.349,-1.726,0.255,0,0,0,0,0.019,0,0,0,0,48.135124,11.581981,1471508,401.94,3,161
New_Tecumseth,0.355,-0.085,0.432,0.035,negative,No,-0.043,0.413,No,linear,-0.085,0.432,0.035,0.355,0.27,North America,0.967,858.4,218.9,39.985,0.664,31.136,0.545,-18.206,0.019,-0.011,0.314,-2.429,-24.542,-0.037,-4.18,0.075,-0.99,0.023,0,0.394,0.29,0.125,0.098,0.044,0.511,0.038,0.328,44.15399,-79.86921,18809,10.36,5,NA
New_York,0.092,0.169,0.013,0.127,positive,Yes,0.165,0.011,Yes,linear,0.169,0.013,0.127,0.092,0.261,North America,1.218,974.021,69.167,28.485,0.384,30.247,0.609,-11.008,0.174,0.091,36.486,140.307,-38.016,-0.211,-3.656,0.278,-3.061,0.198,0,0,0,0.006,0.008,0.005,0.004,0,0,40.730862,-73.987156,8174988,3296.97,7,201
Newcastle,0.389,0.3,0.089,0.066,positive,No,0.303,0.098,No,linear,0.3,0.089,0.066,0.389,0.69,Oceania,0.893,1214.267,39.867,27.318,-0.393,35.594,0.422,11.838,0.483,-0.312,172.888,-77.81,-34.071,-0.05,0.444,0.024,-0.405,0.071,0,0,0.005,0.008,0.321,0.624,0.792,0.371,0.402,-32.928278,151.781667,322279,194.25,3,73
Newhaven,0.151,0.151,0.024,0.127,positive,Yes,0.163,0.018,Yes,linear,0.151,0.024,0.127,0.151,0.301,North America,1.239,957.675,94.075,20.182,0.102,35.848,0.669,-1.16,0.186,0.186,-15.064,257.787,-29.569,0.429,-5.875,0.189,-5.817,-0.047,0,0,0,0.001,0,0.001,0.009,0,0.305,NA,NA,NA,NA,NA,NA
Norfolk,0.242,0.336,0.001,0.253,positive,Yes,0.353,0.001,Yes,linear,0.336,0.001,0.253,0.242,0.579,North America,1.045,1115.775,7.175,40.304,0.693,34.534,0.491,-6.574,0.056,0.024,35.03,-1.385,-84.192,0.033,-10.384,0.453,-3.225,0.055,0,0,0.194,0,0.454,0,0,0,0.038,36.845714,-76.288634,242827,703.07,2,79
Norrtalje,0.145,-0.019,0.806,0.002,negative,No,-0.11,0.008,Yes,linear,-0.019,0.806,0.002,0.145,0.126,Europe,0.95,544.389,16.722,18.049,-0.407,36.93,0.511,1.718,0.377,0,-5.606,-7.027,-60.593,-0.127,-5.034,0.27,-0.048,0.177,0.81,0,0.022,0,0,0,0,0.792,0.001,59.759724,18.701071,56080,8.49,2,NA
North_Bay,0.303,-0.034,0.722,0.003,negative,No,-0.023,0.801,No,linear,-0.034,0.722,0.003,0.303,0.27,North America,1.203,767.956,229.644,26.064,0.684,27.354,0.612,-17.208,0.09,0.041,-14.081,75.139,-67.245,-0.053,-12.258,0.381,-5.354,0.16,0,0,0,0,0.154,0,0,0,0,46.309116,-79.460823,50396,40.2,1,NA
Orangeville,0.335,0.057,0.574,0.011,positive,No,0.055,0.676,No,linear,0.057,0.574,0.011,0.335,0.392,North America,1.15,813.567,477.3,23.051,0.689,31.182,0.525,-13.112,0.014,0.06,-12.378,73.747,-62.357,0.16,-4.923,0.086,-4.786,-0.041,0,0,0,0,0.002,0.003,0.133,0,0.019,43.91924,-80.09741,30734,18.82,4,NA
Ottawa,0.262,0.044,0.705,0.004,positive,No,0.023,0.835,No,quadratic,-0.849,0.055,0.115,0.406,0.478,North America,1.077,807.1,84.7,31.249,0.688,33.488,0.559,-14.411,0.056,0.02,-9.051,28.254,-38.007,-0.046,-6.989,0.3,-3.901,0.017,0,0,0,0.001,0.488,0,0,0,0.612,45.421532,-75.697189,989567,401.57,3,100
Palmerston_North,0.548,0.414,0,0.547,positive,Yes,0.405,0,Yes,linear,0.414,0,0.547,0.548,0.963,Oceania,0.995,935.05,31.667,31.446,-0.359,35.335,0.569,9.584,0.603,-0.111,1.46,-3.306,-75.135,-0.17,-3.645,0.346,-0.111,0.35,0,0.001,0,0,0,0.001,0,0.601,0,-40.356317,175.611239,75400,36.89,1,NA
Paris,0.667,-0.059,0.568,0.007,negative,No,-0.087,0.447,No,linear,-0.059,0.568,0.007,0.667,0.609,Europe,0.8,808.245,103.939,37.01,-0.354,28.203,0.57,4.353,0.395,0.065,-45.438,124.861,-68.914,-0.191,-4.513,0.308,-2.655,0.297,0,0,0,0,0,0.001,0,0,0,48.856613,2.352222,2187526,1751.72,3,780
Parramata,0.136,0.857,0,0.562,positive,Yes,0.876,0,Yes,quadratic,2.109,0,0.651,-0.073,0.796,Oceania,0.69,1298.825,36.725,25.953,-0.413,34.768,0.408,9.546,0.418,-0.14,107.31,-17.011,-43.877,-0.105,1.587,0.003,-1.196,0.017,0,0,0.008,0,0,0.016,0.95,0.001,0.75,-33.814999,151.001114,25798,1618.04,3,NA
Philadelphia,0.211,-0.031,0.627,0.006,negative,No,-0.012,0.87,No,linear,-0.031,0.627,0.006,0.211,0.18,North America,1.091,1037.05,89.05,56.136,0.187,32.485,0.531,7.423,0.113,0.066,-21.642,155.528,-131.903,1.088,-11.375,0.63,-8.892,-0.162,0,0,0,0,0,0,0,0,0,39.951061,-75.165619,1526009,2424.4,5,179
Pittsburgh,0.191,0.07,0.324,0.026,positive,No,0.095,0.169,No,linear,0.07,0.324,0.026,0.191,0.261,North America,0.929,1051.675,332.625,30.668,0.285,31.224,0.598,1.916,0.167,0.092,-47.109,105.032,-68.338,-0.616,-7.701,0.457,1.465,0.299,0,0,0,0,0,0,0,0.004,0,40.440588,-80.002597,305376,1199.77,2,141
Port_Hope,0.192,0.149,0.106,0.109,positive,No,0.129,0.201,No,linear,0.149,0.106,0.109,0.192,0.341,North America,0.989,801.68,88.08,25.897,0.625,32.082,0.538,-9.246,0.061,-0.006,6.785,0.364,-47.527,0.05,-6.12,0.22,-1.352,-0.019,0.028,0,0.939,0,0.206,0,0.007,0,0.522,43.951562,-78.294127,12587,10.31,2,NA
Portland,0.18,0.007,0.91,0,positive,No,0.007,0.915,No,linear,0.007,0.91,0,0.18,0.187,North America,1.197,964.725,50.95,36.759,-0.295,35.384,0.492,0.95,0.446,0.376,7.126,29.804,-79.776,-0.03,-10.497,0.408,-1.952,0.356,0,0.017,0.022,0,0.616,0,0,0,0,45.516022,-122.681427,583792,1017.18,2,115
Portlandme,0.172,-0.016,0.809,0.002,negative,No,-0.028,0.67,No,linear,-0.016,0.809,0.002,0.172,0.157,North America,1.297,882.175,31.2,19.714,0.166,31.406,0.622,-0.996,0.249,0.033,-15.471,27.506,-46.135,0.329,-10.592,0.255,-3.169,0.147,0,0,0.003,0,0.02,0,0.009,0,0.077,43.656679,-70.253452,66194,102.19,5,NA
Providence,0.136,0.117,0.031,0.109,positive,Yes,0.117,0.039,Yes,linear,0.117,0.031,0.109,0.136,0.254,North America,1.208,967.047,18.349,31.835,-0.132,34.669,0.501,-1.735,0.256,0.032,-24.963,-4.391,-60.639,0.345,-11.223,0.414,-2.94,0.132,0,0,0.321,0,0,0,0,0,0.004,41.823989,-71.412834,177844,596.25,5,126
Punta_Arenas,0.589,0.211,0.008,0.162,positive,Yes,0.218,0.007,Yes,linear,0.211,0.008,0.162,0.589,0.8,South America,0.706,580.5,20.524,NaN,-0.332,21.148,0.424,0.991,0.267,-0.144,13.3,5.471,NA,-0.203,-3.278,0.381,0.936,0.194,0,0,0.355,NA,0,0,0,0.002,0,-53.162989,-70.908124,124169,24.45,1,NA
Quebec_City,0.381,0.071,0.4,0.018,positive,No,0.075,0.388,No,linear,0.071,0.4,0.018,0.381,0.452,North America,1.461,764.667,59.786,33.827,0.642,33.49,0.52,-13.812,-0.008,-0.02,4.866,-47.175,-70.257,0.311,-10.101,0.352,-2.495,-0.045,0.002,0.001,0,0,0,0,0,0,0,46.813751,-71.206166,705103,360.06,1,93
Quito,0.098,0.055,0.554,0.009,positive,No,-0.005,0.928,No,quadratic,0.981,0.011,0.16,-0.043,0.025,South America,0.708,1461.732,2685.925,64.013,-0.338,35.366,0.279,36.595,0.299,-0.3,176.337,-404.58,9.303,-0.061,5.261,0.005,5.521,-0.07,0,0,0,0.568,0.172,0,0.937,0,0.305,-0.186867,-78.479536,1607734,498.68,1,89
Raleigh,0.376,0.057,0.61,0.007,positive,No,0.089,0.426,No,linear,0.057,0.61,0.007,0.376,0.433,North America,0.897,1269.125,119.825,25.367,0.05,34.874,0.622,-0.385,0.327,-0.007,3.065,29.227,-54.978,-0.354,-7.367,0.397,-1.925,0.341,0.109,0.397,0.02,0,0.002,0,0,0,0,35.774994,-78.640093,404073,1281.85,3,40
Rancagua,0.696,0.012,0.907,0,positive,No,0.056,0.629,No,linear,0.012,0.907,0,0.696,0.708,South America,0.372,1343.513,503.872,NaN,-0.354,35.919,0.336,8.844,0.349,0.035,45.42,-26.374,NA,-0.264,-2.422,0.404,0.686,0.39,0,0,0,NA,0,0.011,0,0.165,0,-34.167702,-70.738297,231890,55.17,1,23
Reading,0.172,0.683,0.001,0.256,positive,Yes,0.702,0,Yes,linear,0.683,0.001,0.256,0.172,0.856,Europe,1.015,707.116,57.953,29.015,-0.446,32.799,0.593,2.381,0.556,0.032,4.979,-0.169,-71.704,-0.071,-4.784,0.276,-0.138,0.324,0,0,0.982,0,0.001,0,0,0.545,0,51.45504,-0.96909,218705,91.31,10,14
Rennes,0.84,-0.013,0.838,0.001,negative,No,-0.009,0.874,No,linear,-0.013,0.838,0.001,0.84,0.828,Europe,0.882,809.095,39.833,24.15,-0.407,34.889,0.553,7.127,0.592,0.012,-0.686,0.801,-71.163,-0.157,-7.29,0.3,-2.236,0.421,0,0.293,0.851,0,0,0,0,0,0,48.111778,-1.68026,216815,119.31,1,62
Reutlingen,0.291,0.246,0.034,0.113,positive,Yes,0.255,0.053,No,quadratic,1.185,0.008,0.222,0.143,0.387,Europe,0.945,783.075,367.975,20,0.396,36.818,0.58,-5.795,0.19,-0.049,2.805,-30.9,-53.445,0.411,-9.026,0.213,-0.505,-0.025,0,0.108,0.001,0,0.005,0,0.002,0.138,0.693,48.491951,9.211414,115966,38.39,7,NA
Rochester,0.132,-0.006,0.941,0,negative,No,-0.002,0.978,No,linear,-0.006,0.941,0,0.132,0.126,North America,0.873,921.707,169.775,37.45,0.643,34.071,0.507,-6.262,0.046,-0.027,1.01,16.353,-82.635,0.135,-12.59,0.462,-3.829,-0.049,0,0.08,0,0,0.031,0,0,0,0.044,43.156139,-77.604917,210565,523.41,1,124
Rockford,0.105,0.021,0.675,0.005,positive,No,0.024,0.623,No,linear,0.021,0.675,0.005,0.105,0.126,North America,0.926,983.85,229.05,21.874,0.796,33.685,0.611,-14.37,-0.023,0.014,3.362,18.08,-43.904,0.093,-9.179,0.356,-5.039,-0.036,0,0,0,0,0,0,0,0,0,42.271395,-89.093966,153283,460.91,6,20
Sacramento,0.363,0.231,0.049,0.096,positive,Yes,0.334,0.002,Yes,linear,0.231,0.049,0.096,0.363,0.594,North America,0.33,1391.024,7.171,53.756,-0.303,41.812,0.376,9.906,0.408,0.008,21.389,-5.405,-7.882,-0.104,1.621,-0.002,0.193,0.123,0,0,0.002,0.338,0.001,0.15,0.958,0.657,0.032,38.581572,-121.4944,466390,932.05,4,68
Saint_Thomas,0.406,-0.091,0.424,0.027,negative,No,-0.122,0.264,No,linear,-0.091,0.424,0.027,0.406,0.315,North America,1.109,857,238.077,36.515,0.534,41.405,0.422,-8.138,0.085,-0.007,5.413,-6.307,-60.11,0.039,-3.684,0.051,-0.198,0.013,0,0,0.001,0,0.54,0.005,0.446,0.538,0.585,42.7787,-81.16585,41813,22.71,3,NA
Salem,0.276,0.187,0.095,0.072,positive,No,0.181,0.111,No,linear,0.187,0.095,0.072,0.276,0.463,North America,0.993,1034.225,50.675,27.862,-0.386,38.369,0.463,3.521,0.482,-0.004,-14.498,6.798,-54.705,-0.157,-2.066,-0.048,-1.26,0.133,0.157,0,0.014,0,0,0.043,0.293,0,0.006,44.941017,-123.038677,154909,330.43,8,13
Santa_Maria,0.564,0.145,0.514,0.031,positive,No,0.159,0.464,No,linear,0.145,0.514,0.031,0.564,0.709,South America,1.227,1359.75,104.375,NaN,-0.474,36.48,0.582,14.214,0.522,0,-18.144,-43.885,NA,-0.039,-3.417,0.203,0.437,0.137,0.995,0,0.001,NA,0.387,0.061,0.091,0.547,0.286,-29.68639,-53.81134,248347,57.74,1,51
Santiago,0.679,0.144,0.029,0.109,positive,Yes,0.153,0.026,Yes,linear,0.144,0.029,0.109,0.679,0.823,South America,0.313,1401.75,620.432,NaN,-0.299,38.008,0.322,12.641,0.257,0.11,5.167,-179.683,NA,-0.31,-2.079,0.275,-0.151,0.271,0,0.024,0,NA,0,0.032,0,0.702,0,-33.442137,-70.645768,5220161,653.94,1,148
Sapporo,0.205,0.111,0.2,0.039,positive,No,0.104,0.198,No,linear,0.111,0.2,0.039,0.205,0.316,Asia,1.5,770.091,9.318,25.977,0.708,34.215,0.487,-5.203,-0.013,0.016,7.511,-12.663,-74.706,-0.067,-10.465,0.419,-2.944,-0.02,0,0,0,0,0,0,0,0,0.045,43.061449,141.354538,1952356,441.56,5,100
Seattle,0.254,0.124,0.168,0.049,positive,No,0.148,0.107,No,linear,0.124,0.168,0.049,0.254,0.377,North America,1.329,799.075,100.05,31.855,-0.201,33.699,0.522,-0.968,0.497,0.433,29.539,103.581,-59.21,0.318,-8.272,0.431,-3.962,0.324,0,0.021,0,0,0.005,0,0,0,0.001,47.606209,-122.332069,608666,2167.94,3,116
Shanghai,0.36,0.755,0,0.461,positive,Yes,0.669,0,Yes,quadratic,3.248,0,0.66,-0.213,0.849,Asia,0.989,1029.951,4.976,25.553,-0.262,40.236,0.526,6.649,0.323,-0.152,1.091,-1.601,-27.623,-0.001,-2.681,-0.049,-0.315,-0.01,0,0.325,0.224,0.01,0.989,0.078,0.58,0.308,0.875,31.230391,121.473701,20217748,9212.14,3,173
Sioux_Falls,0.114,0.074,0.55,0.01,positive,No,-0.025,0.747,No,linear,0.074,0.55,0.01,0.114,0.187,North America,0.636,989.421,448.838,19.998,0.54,35.02,0.588,-6.612,0.054,-0.005,6.679,-10.755,-44.272,0.118,-7.907,0.248,-0.933,-0.021,0.007,0,0.181,0,0.023,0,0,0.002,0.092,43.546026,-96.72826,153972,148.12,1,11
St_Albert,0.152,0.05,0.319,0.026,positive,No,0.064,0.238,No,linear,0.05,0.319,0.026,0.152,0.202,North America,0.658,704.775,658.3,37.475,0.685,30.07,0.629,-21.339,0.024,0.002,-6.353,10.119,167.744,0.035,0.102,0.045,-3.402,-0.039,0.07,0,0,0.052,0.117,0.913,0.338,0,0.062,53.642969,-113.62591,66082,27.49,2,NA
St_Louis,0.192,0.094,0.171,0.049,positive,No,0.112,0.068,No,linear,0.094,0.171,0.049,0.192,0.285,North America,0.836,1165.15,157.625,33.778,0.222,35.997,0.555,-2.011,0.148,0.013,37.361,3.03,-51.951,-0.217,-9.902,0.403,-2.332,0.137,0,0,0.789,0,0.003,0,0,0,0,38.627273,-90.197889,319275,1679.01,3,161
Starkville,0.81,-0.036,0.654,0.005,negative,No,-0.056,0.489,No,linear,-0.036,0.654,0.005,0.81,0.774,North America,1.047,1350.875,105.15,20.335,-0.475,40.392,0.491,11.077,0.368,-0.009,3.625,-31.192,-59.781,-0.124,-3.697,0.232,0.743,0.18,0,0,0,0,0,0.005,0,0.055,0,33.462845,-88.810263,23888,25.08,2,NA
Stockholm,0.115,-0.068,0.26,0.029,negative,No,-0.053,0.152,No,linear,-0.068,0.26,0.029,0.115,0.048,Europe,0.923,569.4,38.044,32.939,0.588,36.23,0.511,-14.492,0.025,0.004,-3.319,21.603,-54.571,0.011,-3.712,0.191,-2.52,0.082,0.011,0,0,0,0.684,0.002,0.004,0,0,59.329323,18.068581,962154,453.5,2,156
Stratford,0.339,0.104,0.246,0.058,positive,No,0.098,0.306,No,linear,0.104,0.246,0.058,0.339,0.443,North America,1.122,858.84,363.88,25.28,0.621,31.386,0.471,-10.051,0.016,-0.001,0,1.548,-55.945,0.218,-0.33,0.084,-2.435,-0.013,0.003,0.556,0.236,0,0,0.761,0.264,0,0.422,43.369952,-80.982084,31053,18.58,3,NA
Stuttgart,0.317,-0.027,0.799,0.001,negative,No,-0.022,0.841,No,linear,-0.027,0.799,0.001,0.317,0.289,Europe,0.938,779.28,392.78,23.281,0.32,35.624,0.602,-4.772,0.192,0.137,-26.075,204.542,-37.527,0.912,-7.579,0.185,-1.226,-0.209,0,0,0,0,0,0,0.001,0,0,48.777111,9.18077,634830,160.13,5,140
Sudbury,0.16,-0.123,0.043,0.209,negative,Yes,-0.137,0.033,Yes,linear,-0.123,0.043,0.209,0.16,0.037,North America,1.089,764.15,262.9,56.042,0.781,40.915,0.359,-15.831,0.011,0.033,-8.73,24.687,-43.252,0.025,-6.254,0.285,-3.413,0.022,0,0,0.001,0.038,0.21,0,0.003,0,0.356,46.492095,-80.993641,161531,123.39,1,21
Tacoma,0.273,-0.044,0.669,0.005,negative,No,-0.033,0.716,No,linear,-0.044,0.669,0.005,0.273,0.229,North America,1.183,881.7,99.275,44.257,-0.336,36.359,0.414,0.679,0.422,0.03,-2.324,70.081,-72.157,-0.168,-4.723,0.384,-2.749,0.338,0,0.326,0,0,0.003,0,0,0,0,47.24958,-122.439875,198243,1764.38,3,57
Talca,0.768,-0.134,0.285,0.03,negative,No,-0.058,0.589,No,linear,-0.134,0.285,0.03,0.768,0.633,South America,0.569,1367.825,105.85,NaN,-0.37,35.832,0.352,12.391,0.416,0.053,-29.11,21.093,NA,-0.212,1.692,0.159,1.571,0.411,0,0,0,NA,0,0.088,0.019,0,0,-35.427525,-71.654907,237295,35.43,1,45
Tampa,1.008,-0.03,0.138,0.161,negative,No,-0,0.204,No,linear,-0.03,0.138,0.161,1.008,0.978,North America,0.84,1506.933,31.533,40.062,-0.429,35.576,0.509,23.549,0.407,0.031,100.367,34.512,-12.795,-0.19,-7.811,0.195,-0.977,0.007,0.134,0,0,0.507,0.036,0.001,0.155,0.348,0.933,27.94742,-82.458778,336154,165.9,5,68
Tehran,0.172,0.423,0.011,0.159,positive,Yes,0.431,0.013,Yes,linear,0.423,0.011,0.159,0.172,0.595,Asia,0.15,1401.425,1096,NaN,-0.245,47.579,0.336,7.521,0.212,-0.06,134.938,-275.315,NA,-0.089,5.495,0.082,2.481,0.105,0,0,0,NA,0.029,0.016,0.353,0.01,0.108,35.689425,51.416889,8693706,1163.44,3,120
Temuco,0.749,0.024,0.711,0.003,positive,No,0.016,0.805,No,linear,0.024,0.711,0.003,0.749,0.773,South America,1.062,1107.54,93.283,NaN,-0.336,29.163,0.387,4.744,0.422,-0.164,-9.105,-57.826,NA,-0.249,-1.484,0.227,0.539,0.421,0,0,0,NA,0,0.086,0,0.336,0,-38.739922,-72.590157,236377,41.1,1,40
Thessaloniki,0.324,0.421,0.006,0.164,positive,Yes,0.421,0.011,Yes,linear,0.421,0.006,0.164,0.324,0.744,Europe,0.395,1125.773,29.364,75.867,-0.279,35.36,0.288,12.074,0.238,-0.012,5.132,-54.353,-32.112,-0.207,0.315,0.158,0.697,0.217,0,0.002,0,0.005,0,0.697,0.005,0.121,0,40.640064,22.94442,315196,144.17,1,118
Tokyo,0.175,0.105,0.206,0.033,positive,No,0.066,0.381,No,linear,0.105,0.206,0.033,0.175,0.28,Asia,1.365,1008.42,24.18,52.153,-0.349,30.882,0.511,9.716,0.319,-0.301,69.895,-11.355,-30.183,-0.189,-3.077,0.112,0.411,-0.008,0,0,0.041,0.006,0,0.01,0.164,0.223,0.896,35.689487,139.691711,9272740,6185.82,1,411
Toluca,0.399,0.572,0.032,0.21,positive,Yes,0.631,0.059,No,linear,0.572,0.032,0.21,0.399,0.971,North America,0.641,1411.636,2663.273,65.691,-0.326,39.462,0.298,25.456,0.203,0.174,68.117,-17.473,-56.578,-0.193,-4.325,0.218,-1.882,0.143,0,0.027,0.674,0,0,0.008,0.009,0.1,0.015,19.29212,-99.655777,2260149,305.24,2,53
Toronto,0.16,0.316,0,0.204,positive,Yes,0.301,0,Yes,linear,0.316,0,0.204,0.16,0.476,North America,0.944,845.182,191.033,34.404,0.643,31.603,0.48,-9.479,0.012,0.023,9.939,63.636,-68.763,0.211,-7.297,0.285,-5.72,-0.049,0,0.027,0,0,0,0,0,0,0,43.653225,-79.383186,2731571,1646.97,6,145
Trondheim,0.084,-0.038,0.447,0.015,negative,No,-0.022,0.561,No,linear,-0.038,0.447,0.015,0.084,0.045,Europe,1.822,481.22,53,53.361,0.585,29.756,0.477,-5.452,-0.017,0.019,-16.034,122.354,-61.959,0.902,-5.985,0.435,-5.083,-0.019,0.003,0,0,0,0,0,0,0,0.652,63.43045,10.395002,170936,62.95,1,19
Uppsala,0.051,-0.043,0.156,0.054,negative,No,-0.026,0.18,No,linear,-0.043,0.156,0.054,0.051,0.008,Europe,0.987,563.487,29.974,18.583,-0.413,28.495,0.659,1.576,0.452,0.011,0.245,22.431,-45.567,-0.004,-7.084,0.332,-0.63,0.468,0,0.437,0,0,0.892,0,0,0.013,0,59.858131,17.644621,162089,41.96,3,39
Uruapan,0.881,-0.236,0.292,0.061,negative,No,-0.131,0.488,No,linear,-0.236,0.292,0.061,0.881,0.645,North America,0.972,1638.65,1645.737,66.316,-0.354,38.909,0.299,26.844,0.329,-0.047,-1.357,128.606,-67.417,-0.168,-7.067,0.377,-4.795,0.443,0,0.768,0,0,0,0,0,0,0,19.42085,-102.061638,299965,41.61,1,36
Vancouver,0.129,0.26,0.008,0.169,positive,Yes,0.243,0.004,Yes,linear,0.26,0.008,0.169,0.129,0.389,North America,1.711,766,61.6,32.8,-0.355,37.922,0.47,3.086,0.418,-0.332,56.908,-24.09,-52.765,-0.172,-2.816,0.201,-3.742,0.201,0,0,0.318,0,0,0.091,0,0,0,49.28273,-123.120735,672963,697.06,3,96
Victoria,0.293,0.291,0.003,0.203,positive,Yes,0.303,0.003,Yes,linear,0.291,0.003,0.203,0.293,0.584,North America,1.136,714.425,44.925,20.456,-0.423,33.512,0.548,3.729,0.542,0.369,15.86,48.817,-43.878,-0.195,-4.715,0.28,-3.728,0.321,0,0,0,0,0,0,0,0,0,48.428421,-123.365646,92041,111.51,2,NA
Warsaw,0.058,-0.038,0.257,0.027,negative,No,-0.013,0.32,No,linear,-0.038,0.257,0.027,0.058,0.02,Europe,0.679,738.24,93.94,26.941,0.448,38.102,0.547,-11.194,0.155,0.017,1.909,19.772,-50.383,0.354,-1.249,0.151,-2.256,-0.116,0,0.002,0,0,0,0.179,0.004,0,0.008,52.229675,21.01223,1777972,422.21,3,693
Washington,0.162,0.177,0.021,0.117,positive,Yes,0.205,0.006,Yes,linear,0.177,0.021,0.117,0.162,0.339,North America,0.909,1125.956,90.8,18.6,0.709,31.639,0.655,-4.154,0.035,-0.003,-26.682,121.83,-39.911,-0.016,-6.704,0.28,-2.605,0.019,0.662,0,0,0,0.627,0,0,0,0.445,38.907192,-77.036873,601766,2077.09,9,146
Waterloo,0.302,-0.055,0.598,0.01,negative,No,-0.086,0.328,No,linear,-0.055,0.598,0.01,0.302,0.247,North America,1.107,850.267,366.1,27.09,0.539,30.99,0.542,-10.248,0.061,0.054,-12.584,83.543,-52.496,0.457,-3.138,0.077,-2.956,-0.142,0,0,0,0,0,0.006,0.256,0,0,43.464256,-80.520409,104986,221.21,6,NA
Whitchurch-Stouffville,0.295,0.034,0.692,0.007,positive,No,0.034,0.702,No,linear,0.034,0.692,0.007,0.295,0.329,North America,0.961,829.84,258.24,32.353,0.797,32.053,0.514,-19.896,-0.028,-0.022,4.93,-20.6,-61.669,0.014,-5.188,0.189,-1.863,0.006,0,0,0,0,0.58,0,0.032,0,0.697,43.969332,-79.25685,32634,9.94,5,NA
Winnipeg,0.095,-0.016,0.738,0.003,negative,No,-0.018,0.66,No,linear,-0.016,0.738,0.003,0.095,0.08,North America,0.672,767.093,232.279,22.354,0.653,36.412,0.542,-16.794,0.015,-0.014,4.009,-0.836,-54.696,0.038,-6.873,0.254,-3.112,-0.043,0,0,0.294,0,0.056,0,0,0,0.002,49.895138,-97.138374,711925,332.49,1,106
Wollongong,0.084,0.61,0.001,0.264,positive,Yes,0.629,0.001,Yes,linear,0.61,0.001,0.264,0.084,0.694,Oceania,1.183,1157.6,46.75,13.61,-0.421,35.224,0.508,13.061,0.495,-0.147,34.98,18.323,-24.048,-0.151,0.748,0.205,-0.01,0.079,0,0,0.254,0,0,0.536,0.007,0.982,0.255,-34.424394,150.89385,261897,163.53,5,22
Woodstock,0.369,0.07,0.488,0.019,positive,No,0.028,0.775,No,linear,0.07,0.488,0.019,0.369,0.44,North America,1.06,874.033,301.393,38.517,0.637,37.588,0.475,-11.744,-0.01,0.003,0.842,-13.601,-94.374,0.152,-11.719,0.445,-4.767,0.02,0.041,0.256,0,0,0.001,0,0,0,0.121,43.131443,-80.747106,40404,27.72,4,NA
Wuhan,0.903,-0.052,0.705,0.004,negative,No,-0.109,0.213,No,linear,-0.052,0.705,0.004,0.903,0.851,Asia,1.125,1134.317,31.024,NaN,-0.203,35.864,0.44,12.949,0.177,0.023,-0.072,6.149,NA,-0.413,5.589,-0.015,5.804,-0.074,0.001,0.919,0.202,NA,0,0.015,0.847,0,0.032,30.600917,114.295922,7541527,1603.94,3,241
Xalapa,0.103,0.002,0.984,0,positive,No,0.027,0.753,No,linear,0.002,0.984,0,0.103,0.105,North America,1.252,1315.174,1428.565,30.647,-0.456,35.381,0.504,23.615,0.522,0.035,14.96,17.302,-88.108,-0.214,-8.725,0.451,-4.047,0.402,0.359,0.204,0.75,0,0.003,0.003,0.008,0.014,0.015,19.527269,-96.9235,732835,68.7,1,51
Zurich,0.583,-0.021,0.862,0.001,negative,No,-0.011,0.933,No,linear,-0.021,0.862,0.001,0.583,0.562,Europe,1.428,760.925,462.1,22.391,-0.049,34.582,0.553,3.956,0.309,-0.052,3.296,36.899,-52.141,0.681,-10.07,0.224,-3.607,-0.077,0.025,0.575,0.092,0,0,0,0.001,0,0.385,47.376888,8.541694,415367,318.56,5,120
